STATION_ID,STATION_NAME,LATITUDE,LONGITUDE,STATION_TYPE,REFERENCES,SOIL_TYPE,PGA_VALUE,PGA_LN_SIGMA,SA(0.3)_VALUE,SA(0.3)_LN_SIGMA,SA(0.6)_VALUE,SA(0.6)_LN_SIGMA,SA(1.0)_VALUE,SA(1.0)_LN_SIGMA,VS30,VS30_TYPE,MMI_VALUE,MMI_STDDEV,PGV_LN_SIGMA,PGV_VALUE,SA(3.0)_LN_SIGMA,SA(3.0)_VALUE
MRN,MIRANDOLA (NAPOLI),44.878231,11.061743,seismic,INGV,C,0.297304199,0,0.831707463,0,0.589859971,0,0.546476991,0,208,C,,,,,,
NVL,NOVELLARA,44.843001,10.731506,seismic,INGV,C,0.051205727,0,0.124855904,0,0.046365553,0,0.028443352,0,190,C,,,,,,
MODE,MODENA,44.629722,10.949167,seismic,INGV,C,0.041851208,0,0.073479872,0,0.085823629,0,0.085762946,0,204,C,,,,,,
SRP,SORBOLO (PEZZANI),44.848398,10.446963,seismic,INGV,C,0.040739094,0,0.08749979,0,0.093295124,0,0.034039375,0,218,C,,,,,,
MDC,MEDICINA,44.48556,11.640462,seismic,INGV,C (inferred from geology),0.038848148,0,0.087704747,0,0.111608629,0,0.0462699,0,,C (inferred from geology),,,,,,
MDN,MODENA,44.646988,10.889912,seismic,INGV,C,0.036245735,0,0.076439972,0,0.080160391,0,0.062560653,0,213,C,,,,,,
CPC,COPPARO (COCCANILE),44.921448,11.875613,seismic,INGV,D,0.033166988,0,0.080345422,0,0.066929839,0,0.046052299,0,174,D,,,,,,
ALF,ALFONSINE,44.502284,12.033444,seismic,INGV,C,0.033053959,0,0.060433328,0,0.109015014,0,0.034446041,0,243,C,,,,,,
ARG,ARGENTA,44.63053,11.82516,seismic,INGV,D,0.023790588,0,0.040699685,0,0.051552541,0,0.023575453,0,170,D,,,,,,
GAI,GAINO  TOSCOLANO MADERNO,45.659275,10.616265,seismic,INGV,C (inferred from geology),0.023735077,0,0.108124974,0,0.016724251,0,0.00515204,0,,C (inferred from geology),,,,,,
SANR,SANDRIGO,45.64,11.6099,seismic,INGV,C,0.023490452,0,0.040558439,0,0.020522697,0,0.008755519,0,321,C,,,,,,
ZPP,ZOLA PREDOSA PIANA,44.524391,11.204494,seismic,INGV,C,0.022811829,0,0.05035163,0,0.049148242,0,0.059274165,0,208,C,,,,,,
SSU,SASSUOLO,44.507027,10.784814,seismic,INGV,E,0.02225786,0,0.058549831,0,0.042646699,0,0.030678906,0,489,E,,,,,,
MLD,MELDOLA,44.118498,12.071035,seismic,INGV,C,0.022232775,0,0.051612113,0,0.060283473,0,0.017099315,0,214,C,,,,,,
MNTV,MANTOVA,45.1495,10.7897,seismic,INGV,C,0.021533377,0,0.071856659,0,0.056834427,0,0.036730372,0,237,C,,,,,,
VOBA,VOBARNO,45.6429,10.504,seismic,INGV,B,0.019868645,0,0.037580845,0,0.009128997,0,0.004419324,0,450,B,,,,,,
ASOL,ASOLO,45.8003,11.9023,seismic,INGV,A (inferred from geology),0.019181553,0,0.044886625,0,0.021760171,0,0.009941847,0,,A (inferred from geology),,,,,,
TREG,TREGNAGO,45.523,11.1606,seismic,INGV,B,0.018952641,0,0.033320727,0,0.015481609,0,0.005798226,0,391,B,,,,,,
MNS,MONSELICE,45.251733,11.722134,seismic,INGV,C,0.017719252,0,0.034661483,0,0.008497641,0,0.003650653,0,227,C,,,,,,
OPPE,OPPEANO,45.3082,11.1724,seismic,INGV,C,0.016902271,0,0.03368581,0,0.019516308,0,0.012084372,0,264,C,,,,,,
ISD,ISOLA DELLA SCALA,45.273386,10.960213,seismic,INGV,C,0.016414854,0,0.035691946,0,0.02772223,0,0.02781212,0,252,C,,,,,,
ZOVE,ZOVENCEDO,45.4536,11.4876,seismic,INGV,B (inferred from geology),0.016152952,0,0.026760676,0,0.015868404,0,0.002926298,0,,B (inferred from geology),,,,,,
MOGG,,46.4048,13.1885,seismic,INGV,C (inferred from geology),0.015674599,0,0.041486092,0,0.018247957,0,0.010690543,0,,C (inferred from geology),,,,,,
MLC,MALCESINE,45.807901,10.848521,seismic,INGV,B,0.015540875,0,0.028695892,0,0.011891004,0,0.006716019,0,430,B,,,,,,
FAEN,FAENZA,44.2895,11.877,seismic,INGV,C (inferred from geology),0.015347415,0,0.026972123,0,0.025566104,0,0.024486079,0,,C (inferred from geology),,,,,,
CSP,CASTEL SAN PIETRO TERME,44.378487,11.580113,seismic,INGV,C,0.015263423,0,0.040144375,0,0.030314975,0,0.042944303,0,237,C,,,,,,
FOR,FORLI  NUOVA,44.199409,12.041916,seismic,INGV,C,0.015089437,0,0.022782768,0,0.030879461,0,0.01662817,0,296,C,,,,,,
FLP,FELTRE (PASQUER),46.026695,11.922518,seismic,INGV,C (inferred from geology),0.015073674,0,0.013398088,0,0.003774453,0,0.002214484,0,,C (inferred from geology),,,,,,
IMOL,IMOLA,44.35955,11.74248,seismic,INGV,C (inferred from geology),0.014918483,0,0.031187685,0,0.018218317,0,0.023213215,0,,C (inferred from geology),,,,,,
BRH,BRISIGHELLA,44.20761,11.763964,seismic,INGV,B,0.012946146,0,0.040720393,0,0.019375815,0,0.010479734,0,395,B,,,,,,
CNCS,CONCESIO,45.606,10.217,seismic,INGV,B,0.012211484,0,0.039810737,0,0.022818809,0,0.005279711,0,386,B,,,,,,
SNZ1,S. NAZZARO 1,45.074268,9.894491,seismic,INGV,C,0.011829058,0,0.029723156,0,0.027811181,0,0.015699571,0,222,C,,,,,,
CESC,,46.355701,13.0572,seismic,INGV,A (inferred from geology),0.011019068,0,0.026607017,0,0.023497136,0,0.027162454,0,,A (inferred from geology),,,,,,
TGG,TREGNAGO (COLLINA),45.562015,11.182743,seismic,INGV,A (inferred from geology),0.0108737,0,0.016671615,0,0.008764768,0,0.00213623,0,,A (inferred from geology),,,,,,
CTL8,CASTELLEONE,45.2763,9.7622,seismic,INGV,C (inferred from geology),0.010852348,0,0.027625007,0,0.027174212,0,0.018548865,0,,C (inferred from geology),,,,,,
ORZI,ORZINUOVI,45.4056,9.9307,seismic,INGV,C (inferred from geology),0.010816504,0,0.032633946,0,0.021657789,0,0.016413054,0,,C (inferred from geology),,,,,,
PTV,PONTEVICO,45.274192,10.08792,seismic,INGV,C,0.01080525,0,0.027399731,0,0.016476487,0,0.013601797,0,245,C,,,,,,
BRIS,BRISIGHELLA,44.22454,11.76657,seismic,INGV,B (inferred from geology),0.010553997,0,0.029610721,0,0.015419724,0,0.013318757,0,,B (inferred from geology),,,,,,
CST,CASTELFRANCO 5,45.659581,11.902321,seismic,INGV,B,0.01047196,0,0.032234346,0,0.01763627,0,0.008893483,0,541,B,,,,,,
MDG,MODIGLIANA,44.159257,11.788555,seismic,INGV,B (inferred from geology),0.010407885,0,0.024464701,0,0.010895671,0,0.005895792,0,,B (inferred from geology),,,,,,
MTRZ,MONTERENZIO,44.3128,11.4248,seismic,INGV,B (inferred from geology),0.009644761,0,0.016991235,0,0.016877225,0,0.026330531,0,,B (inferred from geology),,,,,,
FRE8,FREGONA,46.015,12.3552,seismic,INGV,A (inferred from geology),0.009061767,0,0.034331464,0,0.013484043,0,0.00999285,0,,A (inferred from geology),,,,,,
CNG,CONEGLIANO 5,45.881569,12.288142,seismic,INGV,C,0.008596543,0,0.01893436,0,0.016306564,0,0.006192089,0,283,C,,,,,,
CRND,CORNUDA,45.8361,12.0131,seismic,INGV,C (inferred from geology),0.008543768,0,0.016566164,0,0.009488918,0,0.004837291,0,,C (inferred from geology),,,,,,
CSN,CESENA,44.137005,12.241408,seismic,INGV,B,0.008417245,0,0.02813233,0,0.012736389,0,0.010631537,0,541,B,,,,,,
MDT,MODIGLIANA  TREBBIO,44.135015,11.829782,seismic,INGV,B (inferred from geology),0.008410283,0,0.026261999,0,0.022431981,0,0.016908196,0,,B (inferred from geology),,,,,,
BDG,BEDONIA (GALLARETO),44.506794,9.622965,seismic,INGV,B (inferred from geology),0.008299384,0,0.02320321,0,0.017673175,0,0.011813826,0,,B (inferred from geology),,,,,,
CVT,CIVITELLA DI ROMAGNA,44.006148,11.936826,seismic,INGV,B (inferred from geology),0.008251459,0,0.01403471,0,0.012413768,0,0.008177391,0,,B (inferred from geology),,,,,,
LEOD,CAPRIANO DEL COLLE,45.4582,10.1234,seismic,INGV,C (inferred from geology),0.008192531,0,0.026311165,0,0.01639412,0,0.012887778,0,,C (inferred from geology),,,,,,
PAR,PARMA,44.828922,10.279394,seismic,INGV,C,0.007716779,0,0.02058865,0,0.018716087,0,0.013162745,0,335,C,,,,,,
FIVI,FIVIZZANO  MS    ITALY,44.2394,10.1271,seismic,INGV,C (inferred from geology),0.007643546,0,0.01772372,0,0.019308117,0,0.021646336,0,,C (inferred from geology),,,,,,
BOTT,BOTTICINO,45.5494,10.3095,seismic,INGV,A (inferred from geology),0.007640963,0,0.016611787,0,0.007560151,0,0.004395414,0,,A (inferred from geology),,,,,,
ANB,ANCONA 2,43.59229,13.507411,seismic,INGV,B (inferred from geology),0.007506052,0,0.019603633,0,0.031446053,0,0.008136978,0,,B (inferred from geology),,,,,,
ZEN8,SAN ZENO DI MONTAGNA,45.6378,10.7319,seismic,INGV,A (inferred from geology),0.007429768,0,0.015394728,0,0.012673727,0,0.004353203,0,,A (inferred from geology),,,,,,
MOV,MONTEREALE VALCE,46.15519,12.65508,seismic,INGV,C (inferred from geology),0.007311737,0,0.022002176,0,0.007849161,0,0.001845313,0,,C (inferred from geology),,,,,,
RIM,RIMINI,44.005657,12.485725,seismic,INGV,B (inferred from geology),0.007128143,0,0.01769389,0,0.024344923,0,0.01382671,0,,B (inferred from geology),,,,,,
MRR,MARRADI,44.064131,11.603387,seismic,INGV,B (inferred from geology),0.007094618,0,0.019617917,0,0.005392328,0,0.004835429,0,,B (inferred from geology),,,,,,
RVR,RIVERGARO,44.904452,9.598137,seismic,INGV,C (inferred from geology),0.00699153,0,0.011056645,0,0.010571503,0,0.007773319,0,,C (inferred from geology),,,,,,
BAG8,BAGOLINO,45.8228,10.4664,seismic,INGV,A (inferred from geology),0.006685154,0,0.014570925,0,0.006453983,0,0.002414294,0,,A (inferred from geology),,,,,,
BGL,BAGNI DI LUCCA,43.995831,10.576916,seismic,INGV,B (inferred from geology),0.006492122,0,0.0123575,0,0.014699742,0,0.015103865,0,,B (inferred from geology),,,,,,
PNN,PENNABILLI,43.818159,12.262846,seismic,INGV,C,0.006401017,0,0.021436765,0,0.012808281,0,0.007181176,0,335,C,,,,,,
CARC,,45.652599,13.77,seismic,INGV,C (inferred from geology),0.005898147,0,0.015821635,0,0.013975782,0,0.003487045,0,,C (inferred from geology),,,,,,
BRR,BERCETO (RABBONI),44.506389,9.987298,seismic,INGV,B (inferred from geology),0.005889071,0,0.014614992,0,0.023507477,0,0.004364564,0,,B (inferred from geology),,,,,,
MERA,MERATE,45.7054,9.4291,seismic,INGV,C (inferred from geology),0.005872007,0,0.014742085,0,0.015849067,0,0.004705856,0,,C (inferred from geology),,,,,,
LNG,LANGHIRANO (LESIGNANO BAGNI),44.65537,10.31334,seismic,INGV,B,0.005789039,0,0.014007887,0,0.015696059,0,0.014834641,0,428,B,,,,,,
SENI,SENIGALLIA,43.7052,13.2331,seismic,INGV,C,0.005485437,0,0.024064268,0,0.018879061,0,0.009093477,0,242,C,,,,,,
SMP,S. MARCELLO PISTOIESE,44.064114,10.803726,seismic,INGV,B (inferred from geology),0.005418295,0,0.015261731,0,0.009617357,0,0.01886621,0,,B (inferred from geology),,,,,,
OGH6,H TEL DE VILLE DE GRENOBLE SE TOP   38185  GRENOBLE   IS RE   AUVERGNE RH NE ALPES   FRANCE,45.186222,5.736389,seismic,INGV,C (inferred from geology),0.005217828,0,0.005977958,0,0.011029888,0,0.014662593,0,,C (inferred from geology),,,,,,
BGR,BAGNO DI ROMAGNA,43.889511,11.991291,seismic,INGV,A,0.005150896,0,0.010637982,0,0.012922776,0,0.011664532,0,829,A,,,,,,
ZCCA,ZOCCA,44.35085,10.9765,seismic,INGV,B (inferred from geology),0.005042702,0,0.012025954,0,0.013196693,0,0.013038633,0,,B (inferred from geology),,,,,,
STS,S. SOFIA,43.94245,11.905042,seismic,INGV,B,0.004957589,0,0.012240553,0,0.010226485,0,0.010600044,0,456,B,,,,,,
AUL,AULLA,44.208759,9.97307,seismic,INGV,A (inferred from geology),0.004877149,0,0.012955768,0,0.013939726,0,0.009216041,0,,A (inferred from geology),,,,,,
BDT,BADIA TEDALDA,43.706772,12.188036,seismic,INGV,B,0.004866065,0,0.01410207,0,0.012185108,0,0.009270719,0,593,B,,,,,,
PVF,PAVULLO DEL FRIGNANO,44.333096,10.825229,seismic,INGV,B,0.004835194,0,0.00883854,0,0.009065965,0,0.011592658,0,453,B,,,,,,
STFL,FOURNETS LUISANS   25288   DOUBS   BOURGOGNE FRANCHE COMT    FRANCE,47.1121,6.56289,seismic,INGV,A (inferred from geology),0.004791106,0,0.013652198,0,0.007321096,0,0.008072823,0,,A (inferred from geology),,,,,,
SNS,SANSEPOLCRO,43.56739,12.143375,seismic,INGV,C,0.004729574,0,0.007235692,0,0.014134492,0,0.025033831,0,310,C,,,,,,
POR,,45.9524,12.6808,seismic,INGV,C (inferred from geology),0.004609888,0,0.012772124,0,0.007543312,0,0.006671509,0,,C (inferred from geology),,,,,,
PZS,PIAZZA AL SERCHIO,44.188549,10.28861,seismic,INGV,B,0.004506985,0,0.009024948,0,0.014113295,0,0.011114122,0,453,B,,,,,,
CDCA,CITTA DI CASTELLO,43.4584,12.2336,seismic,INGV,C,0.004481811,0,0.007421834,0,0.016650399,0,0.012272482,0,277,C,,,,,,
SPI,SPILIMBERGO,46.1082,12.9059,seismic,INGV,C (inferred from geology),0.004419031,0,0.007975896,0,0.00492054,0,0.003735265,0,,C (inferred from geology),,,,,,
BRB,BARBERINO DI MUGELLO,43.954205,11.212867,seismic,INGV,B (inferred from geology),0.004367899,0,0.0081732,0,0.013047746,0,0.007303986,0,,B (inferred from geology),,,,,,
SSG,SANSEPOLCRO GRAGNANO,43.569859,12.146323,seismic,INGV,B (inferred from geology),0.0043385,0,0.007366951,0,0.014153597,0,0.013874486,0,,B (inferred from geology),,,,,,
STAL,STALIGIAL,46.2601,12.7104,seismic,INGV,B (inferred from geology),0.004229487,0,0.016102611,0,0.003850299,0,0.001526196,0,,B (inferred from geology),,,,,,
STOL,,46.3605,13.3546,seismic,INGV,C (inferred from geology),0.004223923,0,0.013945817,0,0.003124137,0,0.000937078,0,,C (inferred from geology),,,,,,
SEL,SESTRI LEVANTE,44.265343,9.403355,seismic,INGV,B,0.004204941,0,0.008954193,0,0.010669613,0,0.008474453,0,538,B,,,,,,
FVZ,FIVIZZANO,44.238247,10.131089,seismic,INGV,E,0.004191324,0,0.009223902,0,0.006997309,0,0.009044987,0,509,E,,,,,,
CTS,CITTA DI CASTELLO  REGNANO,43.491987,12.223396,seismic,INGV,C (inferred from geology),0.004072136,0,0.005957573,0,0.008113229,0,0.011684175,0,,C (inferred from geology),,,,,,
PIT,PISTOIA,43.989647,10.944552,seismic,INGV,B (inferred from geology),0.00405301,0,0.008315615,0,0.010808536,0,0.006034022,0,,B (inferred from geology),,,,,,
VRL,VARESE LIGURE,44.3927,9.633476,seismic,INGV,A,0.003983007,0,0.008900507,0,0.00902836,0,0.007772599,0,855,A,,,,,,
COR1,CORINALDO,43.63183,13.00033,seismic,INGV,D (inferred from geology),0.00392393,0,0.009701399,0,0.01134872,0,0.011402447,0,,D (inferred from geology),,,,,,
SFI,SANTA SOFIA,43.90477,11.84695,seismic,INGV,B (inferred from geology),0.003773173,0,0.011640184,0,0.008519643,0,0.004733486,0,,B (inferred from geology),,,,,,
GUMA,GUALDO DI MACERATA,43.0627,13.3352,seismic,INGV,B,0.00357629,0,0.006061531,0,0.008431854,0,0.004745093,0,488,B,,,,,,
FIR,FIRENZE,43.774366,11.255134,seismic,INGV,D (inferred from geology),0.003494969,0,0.006260167,0,0.010598112,0,0.00618788,0,,D (inferred from geology),,,,,,
SNM,SAN MARINO,43.934326,12.44929,seismic,INGV,B (inferred from geology),0.003489756,0,0.009806349,0,0.007603751,0,0.00666633,0,,B (inferred from geology),,,,,,
MRZ,MARZABOTTO,44.361374,11.190086,seismic,INGV,B (inferred from geology),0.003485122,0,0.008878764,0,0.010120505,0,0.004783638,0,,B (inferred from geology),,,,,,
PSR,PASSARIANO,45.949318,13.014131,seismic,INGV,C (inferred from geology),0.003445844,0,0.009237595,0,0.006192311,0,0.00217303,0,,C (inferred from geology),,,,,,
CRM1,CASTELRAIMONDO,43.210082,13.058016,seismic,INGV,C (inferred from geology),0.003408886,0,0.007757171,0,0.011915238,0,0.011923275,0,,C (inferred from geology),,,,,,
SSFR,MONTELAGO DI SASSOFERRATO,43.43628,12.78225,seismic,INGV,C (inferred from geology),0.00340593,0,0.017370642,0,0.003518132,0,0.002062388,0,,C (inferred from geology),,,,,,
DCM,DICOMANO,43.891235,11.518011,seismic,INGV,A,0.003405194,0,0.0064284,0,0.005981852,0,0.006779191,0,1000,A,,,,,,
PRM,PREMILCUORE,43.97924,11.781402,seismic,INGV,B (inferred from geology),0.003369,0,0.008820057,0,0.005466105,0,0.004668893,0,,B (inferred from geology),,,,,,
GNV,GENOVA,44.431709,8.932087,seismic,INGV,A,0.003355376,0,0.012214209,0,0.010672238,0,0.003392253,0,1152,A,,,,,,
MCT,MACERATA,43.292511,13.418895,seismic,INGV,C (inferred from geology),0.003290732,0,0.007874291,0,0.010741542,0,0.007824279,0,,C (inferred from geology),,,,,,
GEDE,,46.254398,13.1247,seismic,INGV,C (inferred from geology),0.003275011,0,0.008783488,0,0.005746189,0,0.004693153,0,,C (inferred from geology),,,,,,
GESC,,46.281898,13.1409,seismic,INGV,C (inferred from geology),0.003239392,0,0.008286283,0,0.006275449,0,0.002691219,0,,C (inferred from geology),,,,,,
BGN,BAGNONE,44.322445,9.991797,seismic,INGV,B,0.003196858,0,0.007325244,0,0.011389817,0,0.005122469,0,640,B,,,,,,
CPGN,CARPEGNA,43.8011,12.3205,seismic,INGV,A (inferred from geology),0.00314266,0,0.006384918,0,0.007591826,0,0.01066066,0,,A (inferred from geology),,,,,,
MASA,,46.172199,13.4313,seismic,INGV,B (inferred from geology),0.003041514,0,0.009510723,0,0.004681511,0,0.001526983,0,,B (inferred from geology),,,,,,
MURB,MONTE URBINO,43.263,12.5246,seismic,INGV,B (inferred from geology),0.002921573,0,0.012031564,0,0.005020691,0,0.007289063,0,,B (inferred from geology),,,,,,
PNM,PONTREMOLI,44.379951,9.88165,seismic,INGV,D (inferred from geology),0.002917629,0,0.009110916,0,0.005731989,0,0.003224627,0,,D (inferred from geology),,,,,,
MPAG,MONTE PAGANUCCIO,43.6292,12.7595,seismic,INGV,A (inferred from geology),0.002900551,0,0.007048187,0,0.006473755,0,0.006538973,0,,A (inferred from geology),,,,,,
MAJ,MAJANO  NUOVA,46.182339,13.068922,seismic,INGV,C (inferred from geology),0.002864312,0,0.008332606,0,0.006882858,0,0.004192222,0,,C (inferred from geology),,,,,,
PCRO,PIETRALACROCE  ANCONA,43.60768,13.53233,seismic,INGV,B (inferred from geology),0.002739571,0,0.006433133,0,0.009745672,0,0.0044672,0,,B (inferred from geology),,,,,,
CNF,CASTELNUOVO DI GARFAGNANA,44.110523,10.411119,seismic,INGV,B (inferred from geology),0.002713559,0,0.005085131,0,0.006550902,0,0.009532819,0,,B (inferred from geology),,,,,,
CVF,CIVIDALE DEL FRIULI,46.0918,13.429,seismic,INGV,B (inferred from geology),0.002675252,0,0.006698527,0,0.003520434,0,0.00201233,0,,B (inferred from geology),,,,,,
RNC,RINCINE (LONDA),43.870472,11.606806,seismic,INGV,A,0.002645012,0,0.004873967,0,0.006462601,0,0.006269074,0,859,A,,,,,,
MTL1,MATELICA,43.256732,13.009601,seismic,INGV,C (inferred from geology),0.002642481,0,0.008178429,0,0.006434221,0,0.006185769,0,,C (inferred from geology),,,,,,
TLN,TOLENTINO,43.215904,13.25838,seismic,INGV,B (inferred from geology),0.00262675,0,0.006059844,0,0.007044728,0,0.004283142,0,,B (inferred from geology),,,,,,
TGL,TORRIGLIA,44.53371,9.16589,seismic,INGV,B (inferred from geology),0.002604911,0,0.012974041,0,0.005605814,0,0.003367534,0,,B (inferred from geology),,,,,,
CMO,CASTELMONTE,46.09115,13.514766,seismic,INGV,B (inferred from geology),0.002591399,0,0.012153721,0,0.003442571,0,0.001634129,0,,B (inferred from geology),,,,,,
CAPR,CAPRIOLO,45.6372,9.9345,seismic,INGV,B,0.002579659,0,0.004741491,0,0.004512831,0,0.004644438,0,696,B,,,,,,
BBN,BIBBIENA  NUOVA,43.747646,11.821428,seismic,INGV,A,0.002572159,0,0.003653318,0,0.006139884,0,0.006930274,0,1000,A,,,,,,
SEM,SEMOGO,46.484712,10.271311,seismic,INGV,B (inferred from geology),0.002542974,0,0.010025144,0,0.003744533,0,0.001500123,0,,B (inferred from geology),,,,,,
BORM,BORMIO,46.4694,10.3764,seismic,INGV,B (inferred from geology),0.002516225,0,0.005344566,0,0.003588732,0,0.00150665,0,,B (inferred from geology),,,,,,
VINO,VILLANOVA  ITALY,46.25383,13.2755,seismic,INGV,B (inferred from geology),0.002501068,0,0.007088122,0,0.005542678,0,0.003007008,0,,B (inferred from geology),,,,,,
OVD,OVADA,44.636658,8.642406,seismic,INGV,C (inferred from geology),0.002460911,0,0.006213221,0,0.004830892,0,0.005010446,0,,C (inferred from geology),,,,,,
MMUR,MONTE MURANO,43.44183,12.9973,seismic,INGV,A (inferred from geology),0.002453388,0,0.00880694,0,0.004301415,0,0.004491055,0,,A (inferred from geology),,,,,,
RNS,RONCO SCRIVIA,44.595459,8.936011,seismic,INGV,B,0.002410302,0,0.006025441,0,0.003292478,0,0.001989987,0,709,B,,,,,,
CADA,CAPODARCO,43.1942,13.7614,seismic,INGV,B (inferred from geology),0.002407782,0,0.003108613,0,0.007711579,0,0.005882715,0,,B (inferred from geology),,,,,,
TVR,TAVARNUZZE (IMPRUNETA),43.71233,11.21878,seismic,INGV,C (inferred from geology),0.002336801,0,0.004919641,0,0.005045201,0,0.006501745,0,,C (inferred from geology),,,,,,
BRA,BRANZI,46.004179,9.761945,seismic,INGV,C (inferred from geology),0.002297588,0,0.004095667,0,0.002176079,0,0.001842554,0,,C (inferred from geology),,,,,,
NALS,JARDIN ALSACE LORRAINE   06088  NICE   ALPES MARITIMES   PROVENCE ALPES C TE D AZUR   FRANCE,43.698266,7.256809,seismic,INGV,D,0.002293601,0,0.003386786,0,0.005493606,0,0.008927365,0,171,D,,,,,,
TLM2,TOLMEZZO (AMBIESTA- 2),46.381482,12.983997,seismic,INGV,B,0.00221658,0,0.008051784,0,0.004466843,0,0.00176703,0,458,B,,,,,,
VLC,VILLACOLLEMANDINA  ITALY,44.1594,10.3864,seismic,INGV,A (inferred from geology),0.002161392,0,0.003270908,0,0.003616375,0,0.008338625,0,,A (inferred from geology),,,,,,
DRN,DRENCHIA,46.1667,13.6417,seismic,INGV,B (inferred from geology),0.002089612,0,0.007554746,0,0.005299351,0,0.001444169,0,,B (inferred from geology),,,,,,
AUP,AUPA,46.506454,13.256343,seismic,INGV,C (inferred from geology),0.001967318,0,0.004554391,0,0.002311986,0,0.00108076,0,,C (inferred from geology),,,,,,
ATPC,POGGIO CASTELLACCIO,43.4807,12.457,seismic,INGV,B (inferred from geology),0.001882909,0,0.006374862,0,0.005491928,0,0.005118439,0,,B (inferred from geology),,,,,,
LSP,LA SPEZIA,44.096161,9.807919,seismic,INGV,A (inferred from geology),0.001876942,0,0.003091574,0,0.005996353,0,0.003540047,0,,A (inferred from geology),,,,,,
BSZ,BORGO S. LORENZO  NUOVA,44.031513,11.467336,seismic,INGV,B (inferred from geology),0.001845389,0,0.004831608,0,0.00450574,0,0.002194799,0,,B (inferred from geology),,,,,,
DST2,TRIESTE DST UNIVERSITA  ITALY,45.6589,13.8013,seismic,INGV,B (inferred from geology),0.001778747,0,0.003796145,0,0.003876369,0,0.002206697,0,,B (inferred from geology),,,,,,
FIE,FIESOLE,43.807251,11.294385,seismic,INGV,B (inferred from geology),0.001649532,0,0.004206026,0,0.003464961,0,0.002633046,0,,B (inferred from geology),,,,,,
OGBL,73179  LA MOTTE SERVOLEX   SAVOIE   AUVERGNE RH NE ALPES   FRANCE,45.6345,5.884194,seismic,INGV,C,0.001640857,0,0.001797297,0,0.005977281,0,0.005044416,0,196,C,,,,,,
SEF1,SEFRO,43.14683,12.94762,seismic,INGV,E,0.001620955,0,0.0040429,0,0.002522808,0,0.001523265,0,485,E,,,,,,
SAS,SASSELLO,44.483353,8.486171,seismic,INGV,B (inferred from geology),0.001488511,0,0.00352384,0,0.004931822,0,0.00189799,0,,B (inferred from geology),,,,,,
PIO1,PIORACO,43.178198,12.983759,seismic,INGV,D (inferred from geology),0.001443343,0,0.002216475,0,0.005624222,0,0.005699058,0,,D (inferred from geology),,,,,,
BDI,BAGNI DI LUCCA,44.0628,10.5956,seismic,INGV,B (inferred from geology),0.001437034,0,0.003643114,0,0.002457385,0,0.005126422,0,,B (inferred from geology),,,,,,
TNS,TORINO EUROPA,45.030556,7.684116,seismic,INGV,B (inferred from geology),0.001398915,0,0.003623593,0,0.004618346,0,0.002671703,0,,B (inferred from geology),,,,,,
FEMA,MONTE FEMA,42.9621,13.04976,seismic,INGV,A (inferred from geology),0.001368315,0,0.004024387,0,0.003697479,0,0.003173064,0,,A (inferred from geology),,,,,,
AVS,AVASINIS   TRASAGHIS,46.291933,13.0558,seismic,INGV,C (inferred from geology),0.00135852,0,0.003615761,0,0.003132979,0,0.002903993,0,,C (inferred from geology),,,,,,
PAUL,,46.530201,13.1162,seismic,INGV,C (inferred from geology),0.001347414,0,0.003661857,0,0.002084117,0,0.000797607,0,,C (inferred from geology),,,,,,
OSSC,OSSC,43.52358,11.24579,seismic,INGV,B (inferred from geology),0.001265151,0,0.002602233,0,0.003264021,0,0.00250199,0,,B (inferred from geology),,,,,,
FGV,FIGLINE VALDARNO,43.601456,11.411619,seismic,INGV,B (inferred from geology),0.001263415,0,0.002567176,0,0.002442486,0,0.002265246,0,,B (inferred from geology),,,,,,
PRAD,,46.247601,12.8873,seismic,INGV,B (inferred from geology),0.001248202,0,0.003539336,0,0.002173715,0,0.000735075,0,,B (inferred from geology),,,,,,
TNO,TORINO MAGNOLIE,45.100891,7.633984,seismic,INGV,C (inferred from geology),0.001171249,0,0.002469018,0,0.003778968,0,0.002702351,0,,C (inferred from geology),,,,,,
MENA,MONAST RE DE L ANNONCIADE   06083  MENTON   ALPES MARITIMES   PROVENCE ALPES C TE D AZUR   FRANCE,43.783602,7.489194,seismic,INGV,A (inferred from geology),0.001166441,0,0.003406715,0,0.002970574,0,0.00133849,0,,A (inferred from geology),,,,,,
LEC,LECCO,45.861252,9.412256,seismic,INGV,B (inferred from geology),0.001136431,0,0.002100633,0,0.002197239,0,0.001263976,0,,B (inferred from geology),,,,,,
MDAR,MONTE DARIA,43.1927,13.1427,seismic,INGV,A (inferred from geology),0.001135179,0,0.003057556,0,0.002466393,0,0.003041681,0,,A (inferred from geology),,,,,,
NROC,QUARTIER SAINT ROCH   06088  NICE   ALPES MARITIMES   PROVENCE ALPES C TE D AZUR   FRANCE,43.71499,7.29053,seismic,INGV,C (inferred from geology),0.001127142,0,0.002058807,0,0.003748499,0,0.002746753,0,,C (inferred from geology),,,,,,
SDV,S. DORLIGO DELLA VALLE,45.62817,13.896786,seismic,INGV,A (inferred from geology),0.001111793,0,0.002544354,0,0.001867693,0,0.001538939,0,,A (inferred from geology),,,,,,
SSM1,SAN SEVERINO MARCHE,43.228783,13.176956,seismic,INGV,C (inferred from geology),0.001078563,0,0.002747609,0,0.002394394,0,0.003372414,0,,C (inferred from geology),,,,,,
ATLO,AVT   MONTELOVESCO,43.31516,12.40726,seismic,INGV,B,0.001035034,0,0.001724985,0,0.002286843,0,0.002904098,0,761,B,,,,,,
UMB,UMBERTIDE,43.254437,12.2556,seismic,INGV,B (inferred from geology),0.001010456,0,0.002719297,0,0.001899568,0,0.001818906,0,,B (inferred from geology),,,,,,
CAGN,CAGNES SUR MER  06027  ALPES MARITIMES  PROVENCE ALPES C TE D AZUR  FRANCE,43.6671,7.14558,seismic,INGV,A (inferred from geology),0.001001513,0,0.002678511,0,0.002471506,0,0.00350821,0,,A (inferred from geology),,,,,,
CAFI,CASTIGLION FIORENTINO,43.3292,11.9663,seismic,INGV,B (inferred from geology),0.000984575,0,0.001697876,0,0.002708468,0,0.001973527,0,,B (inferred from geology),,,,,,
FIU1,FIUMINATA,43.188561,12.931604,seismic,INGV,A (inferred from geology),0.000977085,0,0.003050099,0,0.00220125,0,0.002506236,0,,A (inferred from geology),,,,,,
FDS,FORNI DI SOPRA,46.451317,12.562712,seismic,INGV,D (inferred from geology),0.000927703,0,0.003386746,0,0.001794966,0,0.001164601,0,,D (inferred from geology),,,,,,
OGAP,PR FECTURE DE HAUTE SAVOIE   74010  ANNECY   HAUTE SAVOIE   AUVERGNE RH NE ALPES   FRANCE,45.903552,6.132819,seismic,INGV,C,0.000911927,0,0.00139132,0,0.001645707,0,0.003001032,0,240,C,,,,,,
OGFO,MONTBONNOT FORAGE  38  FRANCE,45.208742,5.821009,seismic,INGV,,0.000838365,0,0.000878433,0,0.001152902,0,0.003044516,0,,,,,,,,
CLA,CLAUT,46.272179,12.51455,seismic,INGV,A (inferred from geology),0.000761453,0,0.001835469,0,0.001569107,0,0.000803223,0,,A (inferred from geology),,,,,,
RST,RESIA  STOIVIZZA,46.3628,13.3536,seismic,INGV,B (inferred from geology),0.000749137,0,0.002113088,0,0.00188541,0,0.000828917,0,,B (inferred from geology),,,,,,
OGCU,CAMPUS UNIVERSITAIRE   38179  GI RES   IS RE   AUVERGNE RH NE ALPES   FRANCE,45.200197,5.775136,seismic,INGV,C (inferred from geology),0.00070228,0,0.000951837,0,0.001926034,0,0.002339299,0,,C (inferred from geology),,,,,,
NPOR,PORT   06088  NICE   ALPES MARITIMES   PROVENCE ALPES C TE D AZUR   FRANCE,43.699003,7.285238,seismic,INGV,C (inferred from geology),0.000679885,0,0.001328005,0,0.004336348,0,0.00102835,0,,C (inferred from geology),,,,,,
RQT,ARQUATA DEL TRONTO,42.813091,13.311026,seismic,INGV,A,0.000651196,0,0.0012977,0,0.000882468,0,0.000457081,0,805,A,,,,,,
CSC,CASCIA,42.719097,13.01228,seismic,INGV,B,0.000618084,0,0.00115068,0,0.002599915,0,0.001375938,0,698,B,,,,,,
OGPS,POLYGONE SCIENTIFIQUE   38185  GRENOBLE   IS RE   AUVERGNE RH NE ALPES   FRANCE,45.204375,5.699391,seismic,INGV,C (inferred from geology),0.000612404,0,0.000902255,0,0.001391755,0,0.002014642,0,,C (inferred from geology),,,,,,
BELV,BELV D RE   06013   ALPES MARITIMES   PROVENCE ALPES C TE D AZUR   FRANCE,44.015588,7.31933,seismic,INGV,C (inferred from geology),0.000561237,0,0.001782591,0,0.001382135,0,0.001232529,0,,C (inferred from geology),,,,,,
NCAD,CENTRE ADMINISTRATIF NICE  06  FRANCE,43.6715,7.19988,seismic,INGV,C (inferred from geology),0.00055359,0,0.00140318,0,0.0012712,0,0.000864652,0,,C (inferred from geology),,,,,,
PNR,PINEROLO,44.875845,7.344133,seismic,INGV,B,0.000545387,0,0.001009214,0,0.00147282,0,0.001343966,0,383,B,,,,,,
NRCA,NORCIA,42.83355,13.11427,seismic,INGV,B,0.000543669,0,0.001774735,0,0.001573964,0,0.001296286,0,591,B,,,,,,
T0104,MADONNA DELLE GRAZIE  COPPITO    AQ,42.3599,13.3382,seismic,INGV,B (inferred from geology),0.000541161,0,0.00111248,0,0.001513696,0,0.00230754,0,,B (inferred from geology),,,,,,
AQU,L AQUILA  ITALY,42.354,13.405,seismic,INGV,B (inferred from geology),0.000529963,0,0.000656189,0,0.000949876,0,0.001593159,0,,B (inferred from geology),,,,,,
TERO,TERAMO,42.62279,13.60393,seismic,INGV,A,0.000515289,0,0.00090204,0,0.001461043,0,0.001579246,0,912,A,,,,,,
SDM,S. DEMETRIO NEI VESTINI,42.289706,13.557652,seismic,INGV,B,0.000500208,0,0.000638162,0,0.001200892,0,0.002293612,0,752,B,,,,,,
SAOF,SAORGE,43.986,7.5532,seismic,INGV,A (inferred from geology),0.000443604,0,0.001002399,0,0.001232958,0,0.001457479,0,,A (inferred from geology),,,,,,
SACS,SAN CASCIANO DEI BAGNI,42.84906,11.90967,seismic,INGV,B,0.000435245,0,0.000618791,0,0.000780075,0,0.001400185,0,692,B,,,,,,
OGMU,MUS E DAUPHINOIS   38185  GRENOBLE   IS RE   AUVERGNE RH NE ALPES   FRANCE,45.195389,5.7265,seismic,INGV,A,0.000407637,0,0.001007382,0,0.001392504,0,0.001110389,0,913,A,,,,,,
MON,MONACO,43.730343,7.424688,seismic,INGV,,0.000406045,0,0.000855836,0,0.00119154,0,0.001179702,0,,,,,,,,
SURF,SAINT OURS,44.480935,6.811695,seismic,INGV,B,0.000330651,0,0.000979241,0,0.000754095,0,0.00074114,0,518,B,,,,,,
OGEP,EPAGNY   74112  EPAGNY METZ TESSY   HAUTE SAVOIE   AUVERGNE RH NE ALPES   FRANCE,45.93783,6.090743,seismic,INGV,C (inferred from geology),0.00031114,0,0.000830096,0,0.001396964,0,0.000576004,0,,C (inferred from geology),,,,,,
RNI2,RIONERO SANNITICO,41.70328,14.1524,seismic,INGV,A (inferred from geology),0.000302417,0,0.000324784,0,0.000431405,0,0.000597971,0,,A (inferred from geology),,,,,,
FIAM,FIAMIGNANO,42.26802,13.11718,seismic,INGV,B,0.000264272,0,0.000522368,0,0.000818576,0,0.000988735,0,790,B,,,,,,
ANTF,ANTIBES,43.5644,7.1234,seismic,INGV,A (inferred from geology),0.00020387,0,0.000904013,0,0.000528385,0,0.000219895,0,,A (inferred from geology),,,,,,
CALF,PLATEAU DE CALERN,43.7528,6.9218,seismic,INGV,A,0.00019227,0,0.000489029,0,0.000505952,0,0.000552813,0,1746,A,,,,,,
MIDA,MIRANDA,41.64188,14.25402,seismic,INGV,A (inferred from geology),0.000169396,0,0.00024365,0,0.000291213,0,0.0003181,0,,A (inferred from geology),,,,,,
SNTG,ESANATOGLIA,43.255,12.94057,seismic,INGV,B (inferred from geology),0.000166145,0,0.000529346,0,0.000422114,0,0.000329812,0,,B (inferred from geology),,,,,,
CERA,FILIGNANO,41.5978,14.0183,seismic,INGV,A (inferred from geology),0.000161089,0,0.000206939,0,0.000375991,0,0.000448192,0,,A (inferred from geology),,,,,,
RSL,ROSELEND,45.688207,6.624517,seismic,INGV,A (inferred from topography),0.000158886,0,0.000346164,0,0.000454889,0,0.000343905,0,,A (inferred from topography),,,,,,
OGDI,DIGNE LES BAINS,44.1093,6.2253,seismic,INGV,B (inferred from geology),0.000154603,0,0.000383389,0,0.000447759,0,0.000384782,0,,B (inferred from geology),,,,,,
OGIM,SAINT ISMIER   38397   IS RE   AUVERGNE RH NE ALPES   FRANCE,45.241854,5.821626,seismic,INGV,B,0.000137873,0,0.000384762,0,0.000391468,0,0.000484926,0,599,B,,,,,,
POFI,POSTA FIBRENO,41.71743,13.71202,seismic,INGV,A,0.000128703,0,0.000145349,0,0.0002505,0,0.000328735,0,1280,A,,,,,,
ISO,ISOLA,44.184,7.05,seismic,INGV,,0.000125811,0,0.000271673,0,0.000260072,0,0.000304687,0,,,,,,,,
OGSI,LES TINES SIXT (74),46.0567,6.75611,seismic,INGV,A,0.000120469,0,0.000261324,0,0.000285625,0,0.000404156,0,1500,A,,,,,,
OGGM,BARRAGE DE GRAND MAISON,45.205717,6.116735,seismic,INGV,A (inferred from geology),8.78E-05,0,0.00014224,0,0.000250744,0,0.000306842,0,,A (inferred from geology),,,,,,
OG02,74185  MONNETIER MORNEX,46.154234,6.220211,seismic,INGV,A (inferred from topography),8.47E-05,0,0.000260938,0,0.000278188,0,0.000220127,0,,A (inferred from topography),,,,,,
UTM:(32T 064 496 10000),,44.8237,10.8342,macroseismic,Stations_USGS,,0.151767,0.8059,0.317592,1.0131,,,0.118161,1.0822,194.13,inferred,6,0.3,0.875,10.9936,1.4737,0.025196
UTM:(32T 070 496 10000),,44.8089,11.5924,macroseismic,Stations_USGS,,0.088373,0.8059,0.194486,1.0131,,,0.057146,1.0822,187.47,inferred,5.1,0.3,0.875,5.706,1.4737,0.01249
UTM:(32T 063 504 10000),,45.5454,10.7294,macroseismic,Stations_USGS,,0.079491,0.8059,0.197034,1.0131,,,0.086762,1.0822,465.83,inferred,5.4,0.3,0.875,7.1001,1.4737,0.01921
UTM:(32T 064 500 10000),,45.1835,10.8457,macroseismic,Stations_USGS,,0.074138,0.8059,0.173317,1.0131,,,0.056584,1.0822,199.16,inferred,5,0.3,0.875,5.305,1.4737,0.012507
UTM:(32T 065 494 10000),,44.6416,10.9545,macroseismic,Stations_USGS,,0.070057,0.8059,0.155181,1.0131,,,0.046309,1.0822,224.23,inferred,4.8,0.3,0.875,4.5856,1.4737,0.010244
UTM:(32T 071 502 10000),,45.3455,11.7445,macroseismic,Stations_USGS,,0.058726,0.8059,0.12364,1.0131,,,0.051598,1.0822,370.68,inferred,4.8,0.3,0.875,4.5856,1.4737,0.011564
UTM:(32T 069 501 10000),,45.2614,11.4855,macroseismic,Stations_USGS,,0.057269,0.8059,0.107,1.0131,,,0.03759,1.0822,193.24,inferred,4.6,0.3,0.875,3.9637,1.4737,0.008302
UTM:(32T 071 499 10000),,45.0757,11.7316,macroseismic,Stations_USGS,,0.05429,0.8059,0.094437,1.0131,,,0.03194,1.0822,201.14,inferred,4.5,0.3,0.875,3.6852,1.4737,0.006714
UTM:(32T 060 496 10000),,44.8306,10.3284,macroseismic,Stations_USGS,,0.053656,0.8059,0.104064,1.0131,,,0.048486,1.0822,244.91,inferred,4.7,0.3,0.875,4.2633,1.4737,0.010921
FNVD,,44.1678,11.1229,seismic,Stations_USGS,,0.053468,0,0.027944,0,,,0.009453,0,547.38,inferred,3.6,0.63,0,1.0506,0,0.003667
UTM:(32T 072 490 10000),,44.2634,11.8189,macroseismic,Stations_USGS,,0.051227,0.8059,0.098036,1.0131,,,0.049882,1.0822,424.84,inferred,4.7,0.3,0.875,4.2633,1.4737,0.011274
UTM:(32T 068 493 10000),,44.5446,11.3289,macroseismic,Stations_USGS,,0.046736,0.8059,0.065803,1.0131,,,0.019356,1.0822,227.97,inferred,4.2,0.3,0.875,2.5595,1.4737,0.003485
UTM:(32T 072 502 10000),,45.3423,11.872,macroseismic,Stations_USGS,,0.044552,0.8059,0.069216,1.0131,,,0.032164,1.0822,209.2,inferred,4.4,0.3,0.875,3.4262,1.4737,0.007006
UTM:(32T 078 488 10000),,44.0627,12.5585,macroseismic,Stations_USGS,,0.044245,0.8059,0.081177,1.0131,,,0.05457,1.0822,231.78,inferred,4.7,0.3,0.875,4.2633,1.4737,0.012468
UTM:(32T 067 492 10000),,44.4571,11.1998,macroseismic,Stations_USGS,,0.044031,0.8059,0.06094,1.0131,,,0.020763,1.0822,525.16,inferred,4.2,0.3,0.875,2.5595,1.4737,0.003873
UTM:(32T 075 492 10000),,44.4333,12.204,macroseismic,Stations_USGS,,0.04135,0.8059,0.062878,1.0131,,,0.035114,1.0822,211.76,inferred,4.4,0.3,0.875,3.4262,1.4737,0.007992
UTM:(32T 071 500 10000),,45.1657,11.7358,macroseismic,Stations_USGS,,0.040888,0.8059,0.052374,1.0131,,,0.018076,1.0822,208.24,inferred,4.1,0.3,0.875,2.1884,1.4737,0.003248
UTM:(32T 068 492 10000),,44.4546,11.3254,macroseismic,Stations_USGS,,0.038693,0.8059,0.046119,1.0131,,,0.015392,1.0822,323.04,inferred,4,0.3,0.875,1.8712,1.4737,0.002635
UTM:(32T 065 492 10000),,44.4617,10.9485,macroseismic,Stations_USGS,,0.037709,0.8059,0.044922,1.0131,,,0.015767,1.0822,558.95,inferred,4,0.3,0.875,1.8712,1.4737,0.002732
UTM:(32T 069 504 10000),,45.5312,11.4974,macroseismic,Stations_USGS,,0.034466,0.8059,0.045264,1.0131,,,0.020655,1.0822,211.65,inferred,4.1,0.3,0.875,2.1884,1.4737,0.003968
UTM:(32T 067 485 10000),,43.8273,11.1764,macroseismic,Stations_USGS,,0.033756,0.8059,0.050073,1.0131,,,0.032777,1.0822,222.53,inferred,4.3,0.3,0.875,2.9936,1.4737,0.007442
UTM:(32T 072 503 10000),,45.4322,11.8765,macroseismic,Stations_USGS,,0.033115,0.8059,0.044298,1.0131,,,0.021066,1.0822,208.68,inferred,4.1,0.3,0.875,2.1884,1.4737,0.004087
UTM:(32T 070 507 10000),,45.7981,11.638,macroseismic,Stations_USGS,,0.031369,0.8059,0.045505,1.0131,,,0.027117,1.0822,874.79,inferred,4.2,0.3,0.875,2.5595,1.4737,0.005782
UTM:(32T 073 507 10000),,45.7886,12.0235,macroseismic,Stations_USGS,,0.029205,0.8059,0.043783,1.0131,,,0.02809,1.0822,325.08,inferred,4.2,0.3,0.875,2.5595,1.4737,0.006096
UTM:(32T 052 490 10000),,44.2978,9.3134,macroseismic,Stations_USGS,,0.026865,0.8059,0.04427,1.0131,,,0.036683,1.0822,760,inferred,4.3,0.3,0.875,2.9936,1.4737,0.008813
UTM:(32T 061 503 10000),,45.4591,10.471,macroseismic,Stations_USGS,,0.026696,0.8059,0.037285,1.0131,,,0.018694,1.0822,383.03,inferred,4,0.3,0.875,1.8712,1.4737,0.003527
UTM:(32T 075 501 10000),,45.2422,12.2492,macroseismic,Stations_USGS,,0.026231,0.8059,0.036933,1.0131,,,0.018857,1.0822,600,inferred,4,0.3,0.875,1.8712,1.4737,0.003574
ROVR,,45.6468,11.0721,seismic,Stations_USGS,,0.02554,0,0.05617,0,,,0.004773,0,738.81,inferred,3.4,0.63,0,0.7384,0,0.000448
MAGA,,45.7753,10.6286,seismic,Stations_USGS,,0.024279,0,0.034079,0,,,0.007765,0,900,inferred,3.4,0.63,0,0.7144,0,0.000592
UTM:(32T 074 505 10000),,45.6053,12.1418,macroseismic,Stations_USGS,,0.02316,0.8059,0.034534,1.0131,,,0.020051,1.0822,219.34,inferred,4,0.3,0.875,1.8712,1.4737,0.003919
UTM:(32T 067 510 10000),,46.0761,11.2632,macroseismic,Stations_USGS,,0.020062,0.8059,0.03196,1.0131,,,0.021522,1.0822,760,inferred,4,0.3,0.875,1.8712,1.4737,0.004358
TEOL,,45.3617,11.6739,seismic,Stations_USGS,,0.019427,0,0.041426,0,,,0.015749,0,821.66,inferred,3.7,0.63,0,1.1844,0,0.001493
UTM:(32T 050 505 10000),,45.6485,9.0642,macroseismic,Stations_USGS,,0.018219,0.8059,0.03209,1.0131,,,0.028286,1.0822,760,inferred,4.1,0.3,0.875,2.1884,1.4737,0.006361
CTI,,46.0482,11.6497,seismic,Stations_USGS,,0.013158,0,0.018869,0,,,0.003329,0,760,inferred,3.2,0.63,0,0.4052,0,0.000301
SALO,,45.6078,10.5255,seismic,Stations_USGS,,0.0117,0,0.01923,0,,,0.009016,0,792.57,inferred,3.6,0.63,0,0.751,0,0.001158
PRMA,,44.7637,10.3131,seismic,Stations_USGS,,0.00609,0,0.012164,0,,,0.009586,0,271.01,inferred,3.6,0.63,0,1.0315,0,0.002917
POLC,,46.0266,12.5005,seismic,Stations_USGS,,0.005549,0,0.015907,0,,,0.003165,0,760,inferred,2.9,0.63,0,0.3177,0,0.00022
BOSI,,46.4952,11.3185,seismic,Stations_USGS,,0.005245,0,0.014628,0,,,0.004563,0,760,inferred,3,0.63,0,0.4164,0,0.000537
PESA,,43.941,12.8402,seismic,Stations_USGS,,0.005107,0,0.009861,0,,,0.004154,0,760,inferred,3.1,0.63,0,0.356,0,0.000684
FSSB,,43.6931,12.7771,seismic,Stations_USGS,,0.004231,0,0.009729,0,,,0.001916,0,760,inferred,2.8,0.63,0,0.281,0,0.000426
CGRP,,45.8807,11.8047,seismic,Stations_USGS,,0.003341,0,0.013066,0,,,0.003179,0,900,inferred,2.9,0.63,0,0.2753,0,0.000944
MAIM,,43.9142,10.4915,seismic,Stations_USGS,,0.003206,0,0.006515,0,,,0.005789,0,614.97,inferred,3.2,0.63,0,0.2613,0,0.00051
MABI,,46.0549,10.514,seismic,Stations_USGS,,0.003148,0,0.003629,0,,,0.000864,0,760,inferred,2.4,0.63,0,0.1436,0,0.000277
KOSI,,46.463,11.3778,seismic,Stations_USGS,,0.002978,0,0.007792,0,,,0.002051,0,760,inferred,2.6,0.63,0,0.202,0,0.000307
MSSA,,44.3162,9.51739,seismic,Stations_USGS,,0.002967,0,0.004266,0,,,0.006874,0,760,inferred,3,0.63,0,0.3411,0,0.000391
MILN,,45.4803,9.2321,seismic,Stations_USGS,,0.002697,0,0.0068,0,,,0.005322,0,760,inferred,2.9,0.63,0,0.3323,0,0.000221
PLMA,,44.0498,9.85071,seismic,Stations_USGS,,0.002664,0,0.007364,0,,,0.003711,0,421.07,inferred,2.6,0.63,0,0.174,0,0.000425
ASQU,,43.7967,11.7893,seismic,Stations_USGS,,0.002527,0,0.004928,0,,,0.006951,0,760,inferred,3.1,0.63,0,0.425,0,0.001163
MOSI,,46.6164,10.5495,seismic,Stations_USGS,,0.002228,0,0.003406,0,,,0.002629,0,760,inferred,2.5,0.63,0,0.1788,0,0.000315
AGOR,,46.2829,12.0472,seismic,Stations_USGS,,0.002205,0,0.009593,0,,,0.00125,0,760,inferred,2.4,0.63,0,0.1057,0,0.000185
CRMI,,43.79,10.97,seismic,Stations_USGS,,0.001802,0,0.004526,0,,,0.00263,0,760,inferred,2.9,0.63,0,0.2203,0,0.00092
PIEI,,43.5357,12.535,seismic,Stations_USGS,,0.001565,0,0.00585,0,,,0.000725,0,760,inferred,2.1,0.63,0,0.1017,0,0.000229
PARC,,43.6486,12.2386,seismic,Stations_USGS,,0.001304,0,0.002088,0,,,0.001979,0,760,inferred,2.4,0.63,0,0.1313,0,0.000481
CSNT,,43.4731,11.2902,seismic,Stations_USGS,,0.001115,0,0.002479,0,,,0.002116,0,760,inferred,2.7,0.63,0,0.2432,0,0.000664
BRMO,,46.476,10.3731,seismic,Stations_USGS,,0.001085,0,0.001985,0,,,0.001179,0,760,inferred,2.1,0.63,0,0.0922,0,0.000117
ATMI,,43.3342,12.268,seismic,Stations_USGS,,0.000857,0,0.003087,0,,,0.000898,0,760,inferred,2.1,0.63,0,0.0723,0,0.000209
ATCA,,43.5659,12.2661,seismic,Stations_USGS,,0.000787,0,0.001329,0,,,0.001031,0,760,inferred,2.3,0.63,0,0.139,0,0.000471
ATVO,,43.3821,12.4066,seismic,Stations_USGS,,0.000476,0,0.001841,0,,,0.000604,0,760,inferred,1.9,0.63,0,0.0657,0,0.000122
FROS,,43.2097,11.1562,seismic,Stations_USGS,,0.000474,0,0.001064,0,,,0.000875,0,760,inferred,2.2,0.63,0,0.0631,0,0.000128
TRIF,,43.1148,10.9026,seismic,Stations_USGS,,0.000313,0,0.000658,0,,,0.00057,0,760,inferred,1.9,0.63,0,0.0662,0,0.000144
UTM:(32T 039 499 10000),,45.1007,7.6655,macroseismic,Stations_USGS,,,,,,,,,,760,inferred,2.4,0.3,,,,
UTM:(32T 048 505 10000),,45.6484,8.8075,macroseismic,Stations_USGS,,,,,,,,,,760,inferred,3.3,0.3,,,,
UTM:(32T 048 507 10000),,45.8284,8.8069,macroseismic,Stations_USGS,,,,,,,,,,760,inferred,3.6,0.3,,,,
UTM:(32T 049 491 10000),,44.3882,8.9372,macroseismic,Stations_USGS,,,,,,,,,,760,inferred,3.1,0.3,,,,
UTM:(32T 050 503 10000),,45.4685,9.064,macroseismic,Stations_USGS,,,,,,,,,,760,inferred,2.4,0.3,,,,
UTM:(32T 050 504 10000),,45.5585,9.0641,macroseismic,Stations_USGS,,,,,,,,,,760,inferred,3.4,0.3,,,,
UTM:(32T 050 507 10000),,45.8285,9.0645,macroseismic,Stations_USGS,,,,,,,,,,760,inferred,3.9,0.3,,,,
UTM:(32T 051 500 10000),,45.1983,9.191,macroseismic,Stations_USGS,,,,,,,,,,760,inferred,3.6,0.3,,,,
UTM:(32T 051 502 10000),,45.3783,9.1916,macroseismic,Stations_USGS,,,,,,,,,,760,inferred,3.6,0.3,,,,
UTM:(32T 051 503 10000),,45.4683,9.192,macroseismic,Stations_USGS,,,,,,,,,,760,inferred,3.6,0.3,,,,
UTM:(32T 051 504 10000),,45.5584,9.1923,macroseismic,Stations_USGS,,,,,,,,,,760,inferred,3.3,0.3,,,,
UTM:(32T 051 505 10000),,45.6484,9.1926,macroseismic,Stations_USGS,,,,,,,,,,760,inferred,3.7,0.3,,,,
UTM:(32T 052 502 10000),,45.3781,9.3194,macroseismic,Stations_USGS,,,,,,,,,,760,inferred,3.9,0.3,,,,
UTM:(32T 052 504 10000),,45.558,9.3204,macroseismic,Stations_USGS,,,,,,,,,,760,inferred,3.6,0.3,,,,
UTM:(32T 052 505 10000),,45.6481,9.3209,macroseismic,Stations_USGS,,,,,,,,,,760,inferred,2.6,0.3,,,,
UTM:(32T 053 507 10000),,45.8276,9.4506,macroseismic,Stations_USGS,,,,,,,,,,760,inferred,2.9,0.3,,,,
UTM:(32T 055 498 10000),,45.0163,9.6981,macroseismic,Stations_USGS,,,,,,,,,,760,inferred,3.1,0.3,,,,
UTM:(32T 056 488 10000),,44.1153,9.8124,macroseismic,Stations_USGS,,,,,,,,,,576.49,inferred,3.6,0.3,,,,
UTM:(32T 057 488 10000),,44.1143,9.9373,macroseismic,Stations_USGS,,,,,,,,,,291.15,inferred,3.6,0.3,,,,
UTM:(32T 059 504 10000),,45.552,10.2172,macroseismic,Stations_USGS,,,,,,,,,,271.85,inferred,3.8,0.3,,,,
UTM:(32T 061 484 10000),,43.7491,10.4284,macroseismic,Stations_USGS,,,,,,,,,,760,inferred,3.2,0.3,,,,
UTM:(32T 062 495 10000),,44.7374,10.5788,macroseismic,Stations_USGS,,,,,,,,,,235.24,inferred,3.8,0.3,,,,
UTM:(32T 063 483 10000),,43.6557,10.6743,macroseismic,Stations_USGS,,,,,,,,,,760,inferred,3.1,0.3,,,,
UTM:(32T 065 486 10000),,43.9218,10.9308,macroseismic,Stations_USGS,,,,,,,,,,268.87,inferred,2.9,0.3,,,,
UTM:(32T 065 503 10000),,45.4513,10.9823,macroseismic,Stations_USGS,,,,,,,,,,325.85,inferred,3.7,0.3,,,,
UTM:(32T 066 492 10000),,44.4595,11.0741,macroseismic,Stations_USGS,,,,,,,,,,441.26,inferred,3.5,0.3,,,,
UTM:(32T 066 510 10000),,46.0786,11.134,macroseismic,Stations_USGS,,,,,,,,,,760,inferred,3.3,0.3,,,,
UTM:(32T 067 496 10000),,44.817,11.2134,macroseismic,Stations_USGS,,,,,,,,,,221.52,inferred,3.7,0.3,,,,
UTM:(32T 067 498 10000),,44.9968,11.2203,macroseismic,Stations_USGS,,,,,,,,,,189.77,inferred,,,,,,
UTM:(32T 068 494 10000),,44.6345,11.3325,macroseismic,Stations_USGS,,,,,,,,,,193.75,inferred,3.9,0.3,,,,
UTM:(32T 068 504 10000),,45.5339,11.3695,macroseismic,Stations_USGS,,,,,,,,,,326.49,inferred,3.2,0.3,,,,
UTM:(32T 068 506 10000),,45.7138,11.377,macroseismic,Stations_USGS,,,,,,,,,,334.37,inferred,3.5,0.3,,,,
UTM:(32T 068 523 10000),,47.2424,11.4446,macroseismic,Stations_USGS,,,,,,,,,,760,inferred,2,0.3,,,,
UTM:(32T 069 492 10000),,44.452,11.4509,macroseismic,Stations_USGS,,,,,,,,,,291.62,inferred,3.8,0.3,,,,
UTM:(32T 069 493 10000),,44.5419,11.4547,macroseismic,Stations_USGS,,,,,,,,,,234.79,inferred,3.6,0.3,,,,
UTM:(32T 070 504 10000),,45.5284,11.6254,macroseismic,Stations_USGS,,,,,,,,,,211.45,inferred,3.7,0.3,,,,
UTM:(32T 070 505 10000),,45.6183,11.6296,macroseismic,Stations_USGS,,,,,,,,,,229.48,inferred,2.8,0.3,,,,
UTM:(32T 071 501 10000),,45.2556,11.7402,macroseismic,Stations_USGS,,,,,,,,,,484.8,inferred,3.6,0.3,,,,
UTM:(32T 071 504 10000),,45.5253,11.7532,macroseismic,Stations_USGS,,,,,,,,,,216.35,inferred,3.6,0.3,,,,
UTM:(32T 071 507 10000),,45.795,11.7665,macroseismic,Stations_USGS,,,,,,,,,,373.75,inferred,3,0.3,,,,
UTM:(32T 072 510 10000),,46.0615,11.9091,macroseismic,Stations_USGS,,,,,,,,,,760,inferred,2,0.3,,,,
UTM:(32T 073 481 10000),,43.451,11.9045,macroseismic,Stations_USGS,,,,,,,,,,760,inferred,3.3,0.3,,,,
UTM:(32T 073 501 10000),,45.2492,11.9947,macroseismic,Stations_USGS,,,,,,,,,,180,inferred,3.3,0.3,,,,
UTM:(32T 073 503 10000),,45.429,12.0042,macroseismic,Stations_USGS,,,,,,,,,,216.28,inferred,3.3,0.3,,,,
UTM:(32T 074 490 10000),,44.257,12.0692,macroseismic,Stations_USGS,,,,,,,,,,224.42,inferred,3.9,0.3,,,,
UTM:(32T 074 503 10000),,45.4256,12.1319,macroseismic,Stations_USGS,,,,,,,,,,222.27,inferred,3.9,0.3,,,,
UTM:(32T 074 504 10000),,45.5154,12.1368,macroseismic,Stations_USGS,,,,,,,,,,220.56,inferred,3.9,0.3,,,,
UTM:(32T 074 511 10000),,46.1445,12.1724,macroseismic,Stations_USGS,,,,,,,,,,760,inferred,2.9,0.3,,,,
UTM:(32T 075 489 10000),,44.1637,12.1894,macroseismic,Stations_USGS,,,,,,,,,,266.34,inferred,3.4,0.3,,,,
UTM:(32T 075 506 10000),,45.6916,12.2752,macroseismic,Stations_USGS,,,,,,,,,,227.33,inferred,3.6,0.3,,,,
UTM:(32T 075 508 10000),,45.8713,12.2857,macroseismic,Stations_USGS,,,,,,,,,,348.5,inferred,3.5,0.3,,,,
UTM:(32T 076 503 10000),,45.4183,12.3871,macroseismic,Stations_USGS,,,,,,,,,,600,inferred,3.6,0.3,,,,
UTM:(32T 077 505 10000),,45.594,12.5259,macroseismic,Stations_USGS,,,,,,,,,,182.37,inferred,3.9,0.3,,,,
UTM:(32T 077 507 10000),,45.7737,12.5372,macroseismic,Stations_USGS,,,,,,,,,,206.36,inferred,2.7,0.3,,,,
UTM:(32T 077 510 10000),,46.0433,12.5544,macroseismic,Stations_USGS,,,,,,,,,,760,inferred,2.5,0.3,,,,
UTM:(32T 079 507 10000),,45.7655,12.7939,macroseismic,Stations_USGS,,,,,,,,,,760,inferred,2.6,0.3,,,,
UTM:(32T 080 505 10000),,45.5816,12.9096,macroseismic,Stations_USGS,,,,,,,,,,760,inferred,3.4,0.3,,,,
UTM:(32T 086 505 10000),,45.5527,13.6764,macroseismic,Stations_USGS,,,,,,,,,,760,inferred,2.6,0.3,,,,
UTM:(32T 087 506 10000),,45.6371,13.8117,macroseismic,Stations_USGS,,,,,,,,,,760,inferred,2.9,0.3,,,,
UTM:(32T 092 511 10000),,46.0563,14.4946,macroseismic,Stations_USGS,,,,,,,,,,760,inferred,3,0.3,,,,